[
  {
    "name": "Baylys Beach SLS",
    "website": "https://slsbaylys.co.nz/",
    "lat": -35.955,
    "lng": 173.748,
    "safeswim": "https://safeswim.org.nz/locations/baylys-beach",
    "email": "",
    "phone": "",
    "address": "",
    "overview": ""
  },
  {
    "name": "Bethells Beach SLSP",
    "website": "http://www.bethellsbeach.org.nz",
    "lat": -36.89044,
    "lng": 174.448,
    "safeswim": "https://safeswim.org.nz/locations/bethells-beach",
    "email": "",
    "phone": "",
    "address": "",
    "overview": ""
  },
  {
    "name": "Brighton SLSC",
    "website": "https://brightonslsc.co.nz/",
    "lat": -45.93821,
    "lng": 170.35063,
    "safeswim": "https://safeswim.org.nz/locations/brighton",
    "email": "",
    "phone": "",
    "address": "",
    "overview": ""
  },
  {
    "name": "Buller CRS",
    "website": "",
    "lat": -41.74712,
    "lng": 171.55887,
    "safeswim": "https://safeswim.org.nz/locations/buller",
    "email": "",
    "phone": "",
    "address": "",
    "overview": ""
  },
  {
    "name": "East End SLSC",
    "website": "http://www.eastendslsc.org.nz",
    "lat": -39.04872,
    "lng": 174.09284,
    "safeswim": "https://safeswim.org.nz/locations/east-end",
    "email": "",
    "phone": "",
    "address": "",
    "overview": ""
  },
  {
    "name": "Far North",
    "website": "",
    "lat": -35.16662,
    "lng": 173.15463,
    "safeswim": "https://safeswim.org.nz/locations/far-north",
    "email": "",
    "phone": "",
    "address": "",
    "overview": ""
  },
  {
    "name": "Fitzroy SLSC",
    "website": "http://www.fitzroyslsc.co.nz/",
    "lat": -39.04554,
    "lng": 174.09742,
    "safeswim": "https://safeswim.org.nz/locations/fitzroy",
    "email": "",
    "phone": "",
    "address": "",
    "overview": ""
  },
  {
    "name": "Foxton SLSC",
    "website": "https://foxtonslsc.fmweb.nz/",
    "lat": -40.45816,
    "lng": 175.21595,
    "safeswim": "https://safeswim.org.nz/locations/foxton",
    "email": "",
    "phone": "",
    "address": "",
    "overview": ""
  },
  {
    "name": "Hot Water Beach LS",
    "website": "https://www.sporty.co.nz/hotwaterbeachlifeguards",
    "lat": -36.88338,
    "lng": 175.82071,
    "safeswim": "https://safeswim.org.nz/locations/hot-water-beach",
    "email": "",
    "phone": "",
    "address": "",
    "overview": ""
  },
  {
    "name": "Kaka Point SLSC",
    "website": "",
    "lat": -46.38714,
    "lng": 169.78202,
    "safeswim": "https://safeswim.org.nz/locations/kaka-point",
    "email": "",
    "phone": "",
    "address": "",
    "overview": ""
  },
  {
    "name": "Karekare SLSC",
    "website": "http://www.karekaresurfclub.org.nz",
    "lat": -36.98637,
    "lng": 174.47939,
    "safeswim": "https://safeswim.org.nz/locations/karekare",
    "email": "",
    "phone": "",
    "address": "",
    "overview": ""
  },
  {
    "name": "Kariaotahi SLSC",
    "website": "http://www.kariaotahi.org.nz",
    "lat": -37.28414,
    "lng": 174.65533,
    "safeswim": "https://safeswim.org.nz/locations/kariaotahi",
    "email": "",
    "phone": "",
    "address": "",
    "overview": ""
  },
  {
    "name": "Kotuku SLSC",
    "website": "",
    "lat": -42.47264,
    "lng": 171.18474,
    "safeswim": "https://safeswim.org.nz/locations/kotuku",
    "email": "",
    "phone": "",
    "address": "",
    "overview": ""
  },
  {
    "name": "Levin-Waitarere SLSC",
    "website": "http://www.waitareresurfclub.com",
    "lat": -40.54903,
    "lng": 175.19579,
    "safeswim": "https://safeswim.org.nz/locations/levin-waitarere",
    "email": "",
    "phone": "",
    "address": "",
    "overview": ""
  },
  {
    "name": "Lyall Bay SLSC",
    "website": "http://www.lyallbayslsc.org.nz",
    "lat": -41.32992,
    "lng": 174.79406,
    "safeswim": "https://safeswim.org.nz/locations/lyall-bay",
    "email": "",
    "phone": "",
    "address": "",
    "overview": ""
  },
  {
    "name": "Mairangi Bay SLSC",
    "website": "http://www.mairangibayslsc.org.nz",
    "lat": -36.73874,
    "lng": 174.75622,
    "safeswim": "https://safeswim.org.nz/locations/mairangi-bay",
    "email": "",
    "phone": "",
    "address": "",
    "overview": ""
  },
  {
    "name": "Maketu SLSC",
    "website": "https://maketusurflifesaving.co.nz",
    "lat": -37.75427,
    "lng": 176.45614,
    "safeswim": "https://safeswim.org.nz/locations/maketu",
    "email": "",
    "phone": "",
    "address": "",
    "overview": ""
  },
  {
    "name": "Mangawhai Heads Volunteer Lifeguard Service Inc.",
    "website": "http://www.mangawhaisurfclub.org.nz",
    "lat": -36.0816,
    "lng": 174.5985,
    "safeswim": "https://safeswim.org.nz/locations/mangawhai-heads",
    "email": "",
    "phone": "",
    "address": "",
    "overview": ""
  },
  {
    "name": "Maranui SLSC",
    "website": "http://www.maranui.co.nz",
    "lat": -41.32992,
    "lng": 174.79406,
    "safeswim": "https://safeswim.org.nz/locations/maranui",
    "email": "",
    "phone": "",
    "address": "",
    "overview": ""
  },
  {
    "name": "Midway SLSC",
    "website": "http://www.midwaysurf.org.nz/",
    "lat": -38.67041,
    "lng": 178.00531,
    "safeswim": "https://safeswim.org.nz/locations/midway",
    "email": "",
    "phone": "",
    "address": "",
    "overview": ""
  },
  {
    "name": "Mount Maunganui Lifeguard Service",
    "website": "http://www.mountlifeguards.co.nz",
    "lat": -37.63039,
    "lng": 176.1776,
    "safeswim": "https://safeswim.org.nz/locations/mount-maunganui",
    "email": "",
    "phone": "",
    "address": "",
    "overview": ""
  },
  {
    "name": "Muriwai VLS",
    "website": "http://www.muriwaisurf.org.nz",
    "lat": -36.8364,
    "lng": 174.42793,
    "safeswim": "https://safeswim.org.nz/locations/muriwai",
    "email": "",
    "phone": "",
    "address": "",
    "overview": ""
  },
  {
    "name": "Nelson SLSC",
    "website": "http://www.nelsonslsc.org.nz",
    "lat": -41.27831,
    "lng": 173.23885,
    "safeswim": "https://safeswim.org.nz/locations/nelson",
    "email": "",
    "phone": "",
    "address": "",
    "overview": ""
  },
  {
    "name": "New Brighton SLSC",
    "website": "http://www.newbrightonslsc.org.nz",
    "lat": -43.50399,
    "lng": 172.73035,
    "safeswim": "https://safeswim.org.nz/locations/new-brighton",
    "email": "",
    "phone": "",
    "address": "",
    "overview": ""
  },
  {
    "name": "New Plymouth Old Boys SLSC",
    "website": "https://npobsurflifesaving.co.nz/",
    "lat": -39.11577,
    "lng": 173.94727,
    "safeswim": "https://safeswim.org.nz/locations/new-plymouth-old-boys",
    "email": "",
    "phone": "",
    "address": "",
    "overview": ""
  },
  {
    "name": "Ngati Porou SLSC",
    "website": "http://www.facebook.com/pages/Ng%C4%81ti-Porou-Surf-Life-Saving/491816047614703?sk=timeline",
    "lat": -37.59362,
    "lng": 178.30166,
    "safeswim": "https://safeswim.org.nz/locations/ngati-porou",
    "email": "",
    "phone": "",
    "address": "",
    "overview": ""
  },
  {
    "name": "North Beach SLSC",
    "website": "https://www.northbeachslsc.co.nz/",
    "lat": -43.49397,
    "lng": 172.72651,
    "safeswim": "https://safeswim.org.nz/locations/north-beach",
    "email": "",
    "phone": "",
    "address": "",
    "overview": ""
  },
  {
    "name": "Ocean Beach Kiwi SLSC",
    "website": "http://www.obk.org.nz",
    "lat": -39.74386,
    "lng": 177.0089,
    "safeswim": "https://safeswim.org.nz/locations/ocean-beach-kiwi",
    "email": "",
    "phone": "",
    "address": "",
    "overview": ""
  },
  {
    "name": "Omaha Beach SLSC",
    "website": "http://www.omahasurf.co.nz",
    "lat": -36.33957,
    "lng": 174.78093,
    "safeswim": "https://safeswim.org.nz/locations/omaha",
    "email": "",
    "phone": "",
    "address": "",
    "overview": ""
  },
  {
    "name": "Omanu SLSC",
    "website": "http://www.omanubeach.co.nz",
    "lat": -37.6586,
    "lng": 176.21563,
    "safeswim": "https://safeswim.org.nz/locations/omanu",
    "email": "",
    "phone": "",
    "address": "",
    "overview": ""
  },
  {
    "name": "Onemana SLSC",
    "website": "https://www.onemanaslsc.org.nz/",
    "lat": -37.1525,
    "lng": 175.87948,
    "safeswim": "https://safeswim.org.nz/locations/onemana",
    "email": "",
    "phone": "",
    "address": "",
    "overview": ""
  },
  {
    "name": "Opotiki SLSC",
    "website": "https://opotikislsc.nz",
    "lat": -37.99179,
    "lng": 177.23997,
    "safeswim": "https://safeswim.org.nz/locations/opotiki",
    "email": "",
    "phone": "",
    "address": "",
    "overview": ""
  },
  {
    "name": "Opunake SLSC",
    "website": "http://www.opunakesurflifesaving.com",
    "lat": -39.45778,
    "lng": 173.85711,
    "safeswim": "https://safeswim.org.nz/locations/opunake",
    "email": "",
    "phone": "",
    "address": "",
    "overview": ""
  },
  {
    "name": "Oreti SLSC",
    "website": "https://www.oretislsc.org.nz/",
    "lat": -46.43927,
    "lng": 168.23455,
    "safeswim": "https://safeswim.org.nz/locations/oreti",
    "email": "",
    "phone": "",
    "address": "",
    "overview": ""
  },
  {
    "name": "Orewa SLSC",
    "website": "http://www.orewasurfclub.org.nz",
    "lat": -36.59095,
    "lng": 174.69849,
    "safeswim": "https://safeswim.org.nz/locations/orewa",
    "email": "",
    "phone": "",
    "address": "",
    "overview": ""
  },
  {
    "name": "Otaki SLSC",
    "website": "http://www.otakisurfclub.co.nz",
    "lat": -40.73679,
    "lng": 175.11587,
    "safeswim": "https://safeswim.org.nz/locations/otaki",
    "email": "",
    "phone": "",
    "address": "",
    "overview": ""
  },
  {
    "name": "Pacific SLSC",
    "website": "https://www.facebook.com/pacificslsc",
    "lat": -39.48574,
    "lng": 176.92088,
    "safeswim": "https://safeswim.org.nz/locations/pacific",
    "email": "",
    "phone": "",
    "address": "",
    "overview": ""
  },
  {
    "name": "Paekakariki Surf Lifeguards",
    "website": "http://www.paekakarikisurflifeguards.org.nz/",
    "lat": -40.98039,
    "lng": 174.95496,
    "safeswim": "https://safeswim.org.nz/locations/paekakariki",
    "email": "",
    "phone": "",
    "address": "",
    "overview": ""
  },
  {
    "name": "Palmerston North SLSC",
    "website": "https://www.pnslsc.co.nz",
    "lat": -40.36986,
    "lng": 175.23059,
    "safeswim": "https://safeswim.org.nz/locations/palmerston-north",
    "email": "",
    "phone": "",
    "address": "",
    "overview": ""
  },
  {
    "name": "Papamoa SLSC",
    "website": "https://papamoalifeguards.co.nz",
    "lat": -37.69605,
    "lng": 176.28609,
    "safeswim": "https://safeswim.org.nz/locations/papamoa",
    "email": "",
    "phone": "",
    "address": "",
    "overview": ""
  },
  {
    "name": "Pauanui SLSC",
    "website": "https://www.pauanuilifeguards.org.nz/",
    "lat": -37.01343,
    "lng": 175.86549,
    "safeswim": "https://safeswim.org.nz/locations/pauanui",
    "email": "",
    "phone": "",
    "address": "",
    "overview": ""
  },
  {
    "name": "Piha SLSC",
    "website": "http://www.pihaslsc.com",
    "lat": -36.95654,
    "lng": 174.46763,
    "safeswim": "https://safeswim.org.nz/locations/piha",
    "email": "",
    "phone": "",
    "address": "",
    "overview": ""
  },
  {
    "name": "Pukehina Surf Rescue",
    "website": "http://www.pukehinasurfrescue.co.nz",
    "lat": -37.76033,
    "lng": 176.48417,
    "safeswim": "https://safeswim.org.nz/locations/pukehina-beach",
    "email": "",
    "phone": "",
    "address": "",
    "overview": ""
  },
  {
    "name": "Raglan SLSC",
    "website": "http://www.raglansurflifesaving.org.nz",
    "lat": -37.81817,
    "lng": 174.82809,
    "safeswim": "https://safeswim.org.nz/locations/raglan",
    "email": "",
    "phone": "",
    "address": "",
    "overview": ""
  },
  {
    "name": "Rarangi SLSC",
    "website": "http://www.rarangislsc.org.nz",
    "lat": -41.40883,
    "lng": 174.04048,
    "safeswim": "https://safeswim.org.nz/locations/rarangi",
    "email": "",
    "phone": "",
    "address": "",
    "overview": ""
  },
  {
    "name": "Red Beach SLSC",
    "website": "http://www.redbeachslsc.com",
    "lat": -36.6019,
    "lng": 174.70815,
    "safeswim": "https://safeswim.org.nz/locations/red-beach",
    "email": "",
    "phone": "",
    "address": "",
    "overview": ""
  },
  {
    "name": "Riversdale SLSC",
    "website": "",
    "lat": -41.08719,
    "lng": 176.07511,
    "safeswim": "https://safeswim.org.nz/locations/riversdale",
    "email": "",
    "phone": "",
    "address": "",
    "overview": ""
  },
  {
    "name": "Ruakaka SLSP",
    "website": "http://www.ruakakaslsp.org.nz",
    "lat": -35.90889,
    "lng": 174.46054,
    "safeswim": "https://safeswim.org.nz/locations/ruakaka",
    "email": "",
    "phone": "",
    "address": "",
    "overview": ""
  },
  {
    "name": "South Brighton SLSC",
    "website": "http://www.sbsc.co.nz/",
    "lat": -43.52224,
    "lng": 172.73688,
    "safeswim": "https://safeswim.org.nz/locations/south-brighton",
    "email": "",
    "phone": "",
    "address": "",
    "overview": ""
  },
  {
    "name": "Spencer Park SLSC",
    "website": "http://www.spencerparkslsc.org.nz",
    "lat": -43.43214,
    "lng": 172.71362,
    "safeswim": "https://safeswim.org.nz/locations/spencer-park",
    "email": "",
    "phone": "",
    "address": "",
    "overview": ""
  },
  {
    "name": "St Clair SLSC",
    "website": "https://www.stclairsurfclub.org.nz",
    "lat": -45.91133,
    "lng": 170.49125,
    "safeswim": "https://safeswim.org.nz/locations/st-clair",
    "email": "",
    "phone": "",
    "address": "",
    "overview": ""
  },
  {
    "name": "St Kilda SLSC",
    "website": "http://www.stkildasurflifesaving.org/",
    "lat": -45.90829,
    "lng": 170.51183,
    "safeswim": "https://safeswim.org.nz/locations/st-kilda",
    "email": "",
    "phone": "",
    "address": "",
    "overview": ""
  },
  {
    "name": "Sumner SLSC",
    "website": "http://www.sumnerslsc.co.nz",
    "lat": -43.56597,
    "lng": 172.75616,
    "safeswim": "https://safeswim.org.nz/locations/sumner",
    "email": "",
    "phone": "",
    "address": "",
    "overview": ""
  },
  {
    "name": "Sunset Beach LS",
    "website": "http://www.sbls.mobi",
    "lat": -37.40054,
    "lng": 174.71054,
    "safeswim": "https://safeswim.org.nz/locations/sunset-beach",
    "email": "",
    "phone": "",
    "address": "",
    "overview": ""
  },
  {
    "name": "Tairua SLSC",
    "website": "https://www.tairuaslsc.org.nz/",
    "lat": -36.99166,
    "lng": 175.85925,
    "safeswim": "https://safeswim.org.nz/locations/tairua",
    "email": "",
    "phone": "",
    "address": "",
    "overview": ""
  },
  {
    "name": "Taylors Mistake SLSC",
    "website": "http://www.taylorsmistake.com",
    "lat": -43.58334,
    "lng": 172.7763,
    "safeswim": "https://safeswim.org.nz/locations/taylors-mistake",
    "email": "",
    "phone": "",
    "address": "",
    "overview": ""
  },
  {
    "name": "Titahi Bay SLSC",
    "website": "https://www.sporty.co.nz/titahibayslsc/",
    "lat": -41.10627,
    "lng": 174.83541,
    "safeswim": "https://safeswim.org.nz/locations/titahi-bay",
    "email": "",
    "phone": "",
    "address": "",
    "overview": ""
  },
  {
    "name": "Tolaga Bay SLSC",
    "website": "",
    "lat": -38.36933,
    "lng": 178.30627,
    "safeswim": "https://safeswim.org.nz/locations/tolaga-bay",
    "email": "",
    "phone": "",
    "address": "",
    "overview": ""
  },
  {
    "name": "United North Piha Lifeguard Service",
    "website": "http://www.unitednorthpiha.org.nz",
    "lat": -36.94261,
    "lng": 174.46414,
    "safeswim": "https://safeswim.org.nz/locations/united-north-piha",
    "email": "",
    "phone": "",
    "address": "",
    "overview": ""
  },
  {
    "name": "Waihi Beach LS",
    "website": "https://www.waihibeachlifeguards.co.nz/",
    "lat": -37.39764,
    "lng": 175.93828,
    "safeswim": "https://safeswim.org.nz/locations/waihi-beach",
    "email": "",
    "phone": "",
    "address": "",
    "overview": ""
  },
  {
    "name": "Waikanae SLSC",
    "website": "https://waikanaeslsc.org.nz/",
    "lat": -38.671,
    "lng": 178.01734,
    "safeswim": "https://safeswim.org.nz/locations/waikanae",
    "email": "",
    "phone": "",
    "address": "",
    "overview": ""
  },
  {
    "name": "Waikuku Beach SLSC",
    "website": "http://www.wbslsc.com/",
    "lat": -43.28791,
    "lng": 172.72145,
    "safeswim": "https://safeswim.org.nz/locations/waikuku-beach",
    "email": "",
    "phone": "",
    "address": "",
    "overview": ""
  },
  {
    "name": "Waimairi SLSC",
    "website": "http://www.waimairisurf.org.nz/",
    "lat": -43.4858,
    "lng": 172.72393,
    "safeswim": "https://safeswim.org.nz/locations/waimairi",
    "email": "",
    "phone": "",
    "address": "",
    "overview": ""
  },
  {
    "name": "Waimarama SLSC",
    "website": "https://waimaramasurf.org.nz/",
    "lat": -39.81495,
    "lng": 176.99474,
    "safeswim": "https://safeswim.org.nz/locations/waimarama",
    "email": "",
    "phone": "",
    "address": "",
    "overview": ""
  },
  {
    "name": "Wainui SLSC",
    "website": "http://www.wainuislsc.co.nz",
    "lat": -38.67839,
    "lng": 178.08071,
    "safeswim": "https://safeswim.org.nz/locations/wainui",
    "email": "",
    "phone": "",
    "address": "",
    "overview": ""
  },
  {
    "name": "Waipu Cove SLSC",
    "website": "https://www.waipucoveslsc.org.nz",
    "lat": -36.0245,
    "lng": 174.49717,
    "safeswim": "https://safeswim.org.nz/locations/waipu-cove",
    "email": "",
    "phone": "",
    "address": "",
    "overview": ""
  },
  {
    "name": "Warrington SLSC",
    "website": "https://www.facebook.com/WarringtonSLSC",
    "lat": -45.7144,
    "lng": 170.5975,
    "safeswim": "https://safeswim.org.nz/locations/warrington",
    "email": "",
    "phone": "",
    "address": "",
    "overview": ""
  },
  {
    "name": "Westshore SLSC",
    "website": "https://westshoreslsc.org",
    "lat": -39.47531,
    "lng": 176.88244,
    "safeswim": "https://safeswim.org.nz/locations/westshore",
    "email": "",
    "phone": "",
    "address": "",
    "overview": ""
  },
  {
    "name": "Whakatane SLSC",
    "website": "http://www.surf.org.nz",
    "lat": -37.96321,
    "lng": 177.03593,
    "safeswim": "https://safeswim.org.nz/locations/whakatane",
    "email": "",
    "phone": "",
    "address": "",
    "overview": ""
  },
  {
    "name": "Whangamata SLSC",
    "website": "https://whangamatasurf.co.nz/",
    "lat": -37.2143,
    "lng": 175.87947,
    "safeswim": "https://safeswim.org.nz/locations/whangamata",
    "email": "",
    "phone": "",
    "address": "",
    "overview": ""
  },
  {
    "name": "Whanganui SLS",
    "website": "https://wanganuisls.org.nz/",
    "lat": -39.939,
    "lng": 174.9769,
    "safeswim": "https://safeswim.org.nz/locations/wanganui",
    "email": "",
    "phone": "",
    "address": "",
    "overview": ""
  },
  {
    "name": "Whangarei Heads SLSP",
    "website": "https://whvslsp.weebly.com/",
    "lat": -35.815,
    "lng": 174.50467,
    "safeswim": "https://safeswim.org.nz/locations/whangarei-heads",
    "email": "",
    "phone": "",
    "address": "",
    "overview": ""
  },
  {
    "name": "Whiritoa LS",
    "website": "https://www.whiritoalifeguards.co.nz/",
    "lat": -37.28209,
    "lng": 175.90281,
    "safeswim": "https://safeswim.org.nz/locations/whiritoa",
    "email": "",
    "phone": "",
    "address": "",
    "overview": ""
  },
  {
    "name": "Worser Bay LSC",
    "website": "http://www.worserbaylsc.org.nz",
    "lat": -41.31274,
    "lng": 174.82966,
    "safeswim": "https://safeswim.org.nz/locations/worser-bay",
    "email": "",
    "phone": "",
    "address": "",
    "overview": ""
  }
]
